{
"type": "FeatureCollection",
"name": "Grocery_Store_Locations",
"crs": { "type": "name", "properties": { "name": "urn:ogc:def:crs:EPSG::4269" } },
"features": [
{ "type": "Feature", "properties": { "X": -77.0269805790129, "Y": 38.984455298886601, "OBJECTID": "1", "STORENAME": "Target ", "ADDRESS": "7828 GEORGIA  AVE NW", "PHONE": "2028923822", "PRESENT90": "", "PRESENT95": "", "PRESENT00": "", "PRESENT05": "", "PRESENT08": "", "NOTES": "", "X_COORD": "397662.57", "Y_COORD": "146280.07", "ADDRESS_ID": "300512", "WARD": "Ward 4", "PRESENT09": "", "PRESENT10": "", "PRESENT11": "", "PRESENT12": "", "SSL": "2960    0017", "PRESENT13": "", "PRESENT14": "", "PRESENT15": "", "PRESENT16": "", "PRESENT17": "", "ZIPCODE": "20012", "PRESENT18": "", "GIS_ID": "GroceryStorePt_1" }, "geometry": { "type": "Point", "coordinates": [ -77.0269805790129, 38.984455298886601 ] } },
{ "type": "Feature", "properties": { "X": -77.026065754608496, "Y": 38.9834637018227, "OBJECTID": "2", "STORENAME": "International Progresso Market", "ADDRESS": "7719 GEORGIA AVE NW", "PHONE": "2025455015", "PRESENT90": "", "PRESENT95": "", "PRESENT00": "", "PRESENT05": "", "PRESENT08": "", "NOTES": "", "X_COORD": "397741.8", "Y_COORD": "146169.97", "ADDRESS_ID": "285417", "WARD": "Ward 4", "PRESENT09": "", "PRESENT10": "", "PRESENT11": "", "PRESENT12": "", "SSL": "2961    0810", "PRESENT13": "", "PRESENT14": "", "PRESENT15": "", "PRESENT16": "", "PRESENT17": "", "ZIPCODE": "20012", "PRESENT18": "", "GIS_ID": "GroceryStorePt_2" }, "geometry": { "type": "Point", "coordinates": [ -77.026065754608496, 38.9834637018227 ] } },
{ "type": "Feature", "properties": { "X": -77.027798273404699, "Y": 38.9677712350042, "OBJECTID": "3", "STORENAME": "Jocelyn’s Market ", "ADDRESS": "6404 GEORGIA AVE NW", "PHONE": "2027227574", "PRESENT90": "", "PRESENT95": "", "PRESENT00": "", "PRESENT05": "", "PRESENT08": "", "NOTES": "", "X_COORD": "397591.16", "Y_COORD": "144428", "ADDRESS_ID": "285334", "WARD": "Ward 4", "PRESENT09": "", "PRESENT10": "", "PRESENT11": "", "PRESENT12": "", "SSL": "2945    0839", "PRESENT13": "", "PRESENT14": "", "PRESENT15": "", "PRESENT16": "", "PRESENT17": "", "ZIPCODE": "20012", "PRESENT18": "", "GIS_ID": "GroceryStorePt_3" }, "geometry": { "type": "Point", "coordinates": [ -77.027798273404699, 38.9677712350042 ] } },
{ "type": "Feature", "properties": { "X": -77.076459300797396, "Y": 38.965553240286198, "OBJECTID": "4", "STORENAME": "Magruder's", "ADDRESS": "5626 CONNECTICUT AVE NW", "PHONE": "2024644946", "PRESENT90": "Yes", "PRESENT95": "Yes", "PRESENT00": "Yes", "PRESENT05": "Yes", "PRESENT08": "Yes", "NOTES": " ", "X_COORD": "393373.92", "Y_COORD": "144184.19", "ADDRESS_ID": "263860", "WARD": "Ward 3", "PRESENT09": "Yes", "PRESENT10": "Yes", "PRESENT11": "Yes", "PRESENT12": "Yes", "SSL": "1860    0013", "PRESENT13": "Yes", "PRESENT14": "Yes", "PRESENT15": "Yes", "PRESENT16": "Yes", "PRESENT17": "Yes", "ZIPCODE": "20015", "PRESENT18": "Yes", "GIS_ID": "GroceryStorePt_4" }, "geometry": { "type": "Point", "coordinates": [ -77.076459300797396, 38.965553240286198 ] } },
{ "type": "Feature", "properties": { "X": -77.074909665314806, "Y": 38.964600719783398, "OBJECTID": "5", "STORENAME": "Safeway", "ADDRESS": "5545 CONNECTICUT AVE NW", "PHONE": "2022446097", "PRESENT90": "No", "PRESENT95": "Yes", "PRESENT00": "Yes", "PRESENT05": "Yes", "PRESENT08": "Yes", "NOTES": " ", "X_COORD": "393508.13", "Y_COORD": "144078.34", "ADDRESS_ID": "263999", "WARD": "Ward 3", "PRESENT09": "Yes", "PRESENT10": "Yes", "PRESENT11": "Yes", "PRESENT12": "Yes", "SSL": "1867    0092", "PRESENT13": "Yes", "PRESENT14": "Yes", "PRESENT15": "Yes", "PRESENT16": "Yes", "PRESENT17": "Yes", "ZIPCODE": "20015", "PRESENT18": "Yes", "GIS_ID": "GroceryStorePt_5" }, "geometry": { "type": "Point", "coordinates": [ -77.074909665314806, 38.964600719783398 ] } },
{ "type": "Feature", "properties": { "X": -77.027285139692793, "Y": 38.962078321939003, "OBJECTID": "6", "STORENAME": "Walmart Supercenter", "ADDRESS": "5929 GEORGIA AVE NW", "PHONE": "2027193770", "PRESENT90": "No", "PRESENT95": "No", "PRESENT00": "No", "PRESENT05": "No", "PRESENT08": "No", "NOTES": "Georgia Ave", "X_COORD": "397635.44", "Y_COORD": "143796.02", "ADDRESS_ID": "254296", "WARD": "Ward 4", "PRESENT09": "No", "PRESENT10": "No", "PRESENT11": "No", "PRESENT12": "No", "SSL": "2986    0039", "PRESENT13": "Yes", "PRESENT14": "Yes", "PRESENT15": "Yes", "PRESENT16": "Yes", "PRESENT17": "Yes", "ZIPCODE": "20011", "PRESENT18": "Yes", "GIS_ID": "GroceryStorePt_6" }, "geometry": { "type": "Point", "coordinates": [ -77.027285139692793, 38.962078321939003 ] } },
{ "type": "Feature", "properties": { "X": -77.002144468128904, "Y": 38.957976693092199, "OBJECTID": "7", "STORENAME": "Walmart Supercenter", "ADDRESS": "310 RIGGS RD NE", "PHONE": "2027564418", "PRESENT90": "No", "PRESENT95": "No", "PRESENT00": "No", "PRESENT05": "No", "PRESENT08": "No", "NOTES": "Riggs Road", "X_COORD": "399814.33", "Y_COORD": "143340.35", "ADDRESS_ID": "311574", "WARD": "Ward 4", "PRESENT09": "No", "PRESENT10": "No", "PRESENT11": "No", "PRESENT12": "No", "SSL": "3748    0052", "PRESENT13": "No", "PRESENT14": "No", "PRESENT15": "Yes", "PRESENT16": "Yes", "PRESENT17": "Yes", "ZIPCODE": "20011", "PRESENT18": "Yes", "GIS_ID": "GroceryStorePt_7" }, "geometry": { "type": "Point", "coordinates": [ -77.002144468128904, 38.957976693092199 ] } },
{ "type": "Feature", "properties": { "X": -77.021317887689605, "Y": 38.956604251764197, "OBJECTID": "8", "STORENAME": "Tropimart International Foods", "ADDRESS": "607 KENNEDY ST NW", "PHONE": "2026272752", "PRESENT90": "", "PRESENT95": "", "PRESENT00": "", "PRESENT05": "", "PRESENT08": "", "NOTES": "", "X_COORD": "398152.47", "Y_COORD": "143188.21", "ADDRESS_ID": "246733", "WARD": "Ward 4", "PRESENT09": "", "PRESENT10": "", "PRESENT11": "", "PRESENT12": "", "SSL": "3207    0089", "PRESENT13": "", "PRESENT14": "", "PRESENT15": "", "PRESENT16": "", "PRESENT17": "", "ZIPCODE": "20011", "PRESENT18": "", "GIS_ID": "GroceryStorePt_8" }, "geometry": { "type": "Point", "coordinates": [ -77.021317887689605, 38.956604251764197 ] } },
{ "type": "Feature", "properties": { "X": -77.083860827682201, "Y": 38.9563029882964, "OBJECTID": "9", "STORENAME": "Rodman’s ", "ADDRESS": "5100 WISCONSIN AVE NW", "PHONE": "2023633466", "PRESENT90": "", "PRESENT95": "", "PRESENT00": "", "PRESENT05": "", "PRESENT08": "", "NOTES": "", "X_COORD": "392731.53", "Y_COORD": "143157.89", "ADDRESS_ID": "265883", "WARD": "Ward 3", "PRESENT09": "", "PRESENT10": "", "PRESENT11": "", "PRESENT12": "", "SSL": "1656    0009", "PRESENT13": "", "PRESENT14": "", "PRESENT15": "", "PRESENT16": "", "PRESENT17": "", "ZIPCODE": "20016", "PRESENT18": "", "GIS_ID": "GroceryStorePt_69" }, "geometry": { "type": "Point", "coordinates": [ -77.083860827682201, 38.9563029882964 ] } },
{ "type": "Feature", "properties": { "X": -77.012300783653799, "Y": 38.951416154665303, "OBJECTID": "10", "STORENAME": "Avenue Market", "ADDRESS": "5010 NEW HAMPSHIRE AVE NW", "PHONE": "2027261330", "PRESENT90": "", "PRESENT95": "", "PRESENT00": "", "PRESENT05": "", "PRESENT08": "", "NOTES": "", "X_COORD": "398933.95", "Y_COORD": "142612.14", "ADDRESS_ID": "306154", "WARD": "Ward 4", "PRESENT09": "", "PRESENT10": "", "PRESENT11": "", "PRESENT12": "", "SSL": "3403    0806", "PRESENT13": "", "PRESENT14": "", "PRESENT15": "", "PRESENT16": "", "PRESENT17": "", "ZIPCODE": "20011", "PRESENT18": "", "GIS_ID": "GroceryStorePt_10" }, "geometry": { "type": "Point", "coordinates": [ -77.012300783653799, 38.951416154665303 ] } },
{ "type": "Feature", "properties": { "X": -77.079214708364205, "Y": 38.949108887229897, "OBJECTID": "11", "STORENAME": "Whole Foods", "ADDRESS": "4530 40TH ST NW", "PHONE": "2022375800", "PRESENT90": "No", "PRESENT95": "No", "PRESENT00": "Yes", "PRESENT05": "Yes", "PRESENT08": "Yes", "NOTES": "Tenley Town location", "X_COORD": "393133.54", "Y_COORD": "142358.92", "ADDRESS_ID": "265175", "WARD": "Ward 3", "PRESENT09": "Yes", "PRESENT10": "Yes", "PRESENT11": "Yes", "PRESENT12": "Yes", "SSL": "1770    0804", "PRESENT13": "Yes", "PRESENT14": "Yes", "PRESENT15": "Yes", "PRESENT16": "Yes", "PRESENT17": "Yes", "ZIPCODE": "20016", "PRESENT18": "Yes", "GIS_ID": "GroceryStorePt_11" }, "geometry": { "type": "Point", "coordinates": [ -77.079214708364205, 38.949108887229897 ] } },
{ "type": "Feature", "properties": { "X": -77.080552496299006, "Y": 38.948536577759498, "OBJECTID": "12", "STORENAME": "Target ", "ADDRESS": "4500 WISCONSIN  AVE NW", "PHONE": "2022925573", "PRESENT90": "", "PRESENT95": "", "PRESENT00": "", "PRESENT05": "", "PRESENT08": "", "NOTES": "", "X_COORD": "393017.52", "Y_COORD": "142295.49", "ADDRESS_ID": "264422", "WARD": "Ward 3", "PRESENT09": "", "PRESENT10": "", "PRESENT11": "", "PRESENT12": "", "SSL": "1730    0015", "PRESENT13": "", "PRESENT14": "", "PRESENT15": "", "PRESENT16": "", "PRESENT17": "", "ZIPCODE": "20016", "PRESENT18": "", "GIS_ID": "GroceryStorePt_12" }, "geometry": { "type": "Point", "coordinates": [ -77.080552496299006, 38.948536577759498 ] } },
{ "type": "Feature", "properties": { "X": -77.095759111758397, "Y": 38.945721551600002, "OBJECTID": "13", "STORENAME": "Wagshal’s Market ", "ADDRESS": "4845 MASSACHUSETTS AVE NW", "PHONE": "2023630777", "PRESENT90": "", "PRESENT95": "", "PRESENT00": "", "PRESENT05": "", "PRESENT08": "", "NOTES": "", "X_COORD": "391699.01", "Y_COORD": "141984.27", "ADDRESS_ID": "284992", "WARD": "Ward 3", "PRESENT09": "", "PRESENT10": "", "PRESENT11": "", "PRESENT12": "", "SSL": "1499    0001", "PRESENT13": "", "PRESENT14": "", "PRESENT15": "", "PRESENT16": "", "PRESENT17": "", "ZIPCODE": "20016", "PRESENT18": "", "GIS_ID": "GroceryStorePt_13" }, "geometry": { "type": "Point", "coordinates": [ -77.095759111758397, 38.945721551600002 ] } },
{ "type": "Feature", "properties": { "X": -77.063172510457306, "Y": 38.944506775935402, "OBJECTID": "14", "STORENAME": "Giant", "ADDRESS": "4303 CONNECTICUT AVE NW", "PHONE": "2023648250", "PRESENT90": "No", "PRESENT95": "Yes", "PRESENT00": "Yes", "PRESENT05": "Yes", "PRESENT08": "Yes", "NOTES": " ", "X_COORD": "394523.79", "Y_COORD": "141846.96", "ADDRESS_ID": "301784", "WARD": "Ward 3", "PRESENT09": "Yes", "PRESENT10": "Yes", "PRESENT11": "Yes", "PRESENT12": "Yes", "SSL": "2049    0805", "PRESENT13": "Yes", "PRESENT14": "Yes", "PRESENT15": "Yes", "PRESENT16": "Yes", "PRESENT17": "Yes", "ZIPCODE": "20008", "PRESENT18": "Yes", "GIS_ID": "GroceryStorePt_70" }, "geometry": { "type": "Point", "coordinates": [ -77.063172510457306, 38.944506775935402 ] } },
{ "type": "Feature", "properties": { "X": -77.025528970754095, "Y": 38.9410364720761, "OBJECTID": "15", "STORENAME": "Yes! Organic", "ADDRESS": "4100 GEORGIA  AVENUE NW", "PHONE": "2022915790", "PRESENT90": "No", "PRESENT95": "No", "PRESENT00": "No", "PRESENT05": "No", "PRESENT08": "No", "NOTES": " ", "X_COORD": "397786.99", "Y_COORD": "141460.14", "ADDRESS_ID": "300492", "WARD": "Ward 4", "PRESENT09": "Yes", "PRESENT10": "Yes", "PRESENT11": "Yes", "PRESENT12": "Yes", "SSL": "2910    0810", "PRESENT13": "Yes", "PRESENT14": "Yes", "PRESENT15": "Yes", "PRESENT16": "Yes", "PRESENT17": "Yes", "ZIPCODE": "20011", "PRESENT18": "Yes", "GIS_ID": "GroceryStorePt_14" }, "geometry": { "type": "Point", "coordinates": [ -77.025528970754095, 38.9410364720761 ] } },
{ "type": "Feature", "properties": { "X": -77.024858831662698, "Y": 38.938456370779399, "OBJECTID": "16", "STORENAME": "Safeway", "ADDRESS": "3830 GEORGIA  AVE NW", "PHONE": "2028821140", "PRESENT90": "Yes", "PRESENT95": "Yes", "PRESENT00": "Yes", "PRESENT05": "Yes", "PRESENT08": "Yes", "NOTES": " ", "X_COORD": "397845.01", "Y_COORD": "141173.71", "ADDRESS_ID": "225076", "WARD": "Ward 4", "PRESENT09": "Yes", "PRESENT10": "Yes", "PRESENT11": "Yes", "PRESENT12": "Yes", "SSL": "2905    0814", "PRESENT13": "Yes", "PRESENT14": "Yes", "PRESENT15": "Yes", "PRESENT16": "Yes", "PRESENT17": "Yes", "ZIPCODE": "20011", "PRESENT18": "Yes", "GIS_ID": "GroceryStorePt_16" }, "geometry": { "type": "Point", "coordinates": [ -77.024858831662698, 38.938456370779399 ] } },
{ "type": "Feature", "properties": { "X": -76.990397442066097, "Y": 38.936824244908202, "OBJECTID": "17", "STORENAME": "Yes! Organic", "ADDRESS": "3809 12TH ST NE", "PHONE": "2028327715", "PRESENT90": "No", "PRESENT95": "No", "PRESENT00": "No", "PRESENT05": "No", "PRESENT08": "Yes", "NOTES": "Brookland", "X_COORD": "400832.73", "Y_COORD": "140992.28", "ADDRESS_ID": "30397", "WARD": "Ward 5", "PRESENT09": "Yes", "PRESENT10": "Yes", "PRESENT11": "Yes", "PRESENT12": "Yes", "SSL": "3925    0085", "PRESENT13": "Yes", "PRESENT14": "Yes", "PRESENT15": "Yes", "PRESENT16": "Yes", "PRESENT17": "Yes", "ZIPCODE": "20017", "PRESENT18": "Yes", "GIS_ID": "GroceryStorePt_17" }, "geometry": { "type": "Point", "coordinates": [ -76.990397442066097, 38.936824244908202 ] } },
{ "type": "Feature", "properties": { "X": -77.0580161995249, "Y": 38.935859413660303, "OBJECTID": "18", "STORENAME": "Target ", "ADDRESS": "3505 CONNECTICUT AVE NW", "PHONE": "2028923794", "PRESENT90": "", "PRESENT95": "", "PRESENT00": "", "PRESENT05": "", "PRESENT08": "", "NOTES": "", "X_COORD": "394970.18", "Y_COORD": "140886.73", "ADDRESS_ID": "301779", "WARD": "Ward 3", "PRESENT09": "", "PRESENT10": "", "PRESENT11": "", "PRESENT12": "", "SSL": "2222    0015", "PRESENT13": "", "PRESENT14": "", "PRESENT15": "", "PRESENT16": "", "PRESENT17": "", "ZIPCODE": "20008", "PRESENT18": "", "GIS_ID": "GroceryStorePt_18" }, "geometry": { "type": "Point", "coordinates": [ -77.0580161995249, 38.935859413660303 ] } },
{ "type": "Feature", "properties": { "X": -77.057886864125095, "Y": 38.935242769363903, "OBJECTID": "19", "STORENAME": "Streets Market", "ADDRESS": "3427 CONNECTICUT AVE NW ", "PHONE": "2022449114", "PRESENT90": "", "PRESENT95": "", "PRESENT00": "", "PRESENT05": "", "PRESENT08": "", "NOTES": "", "X_COORD": "394981.35", "Y_COORD": "140818.27", "ADDRESS_ID": "219257", "WARD": "Ward 3", "PRESENT09": "", "PRESENT10": "", "PRESENT11": "", "PRESENT12": "", "SSL": "2219    0809", "PRESENT13": "", "PRESENT14": "", "PRESENT15": "", "PRESENT16": "", "PRESENT17": "", "ZIPCODE": "20008", "PRESENT18": "", "GIS_ID": "GroceryStorePt_19" }, "geometry": { "type": "Point", "coordinates": [ -77.057886864125095, 38.935242769363903 ] } },
{ "type": "Feature", "properties": { "X": -77.057790494214203, "Y": 38.935166426639299, "OBJECTID": "20", "STORENAME": "Yes! Organic", "ADDRESS": "3425 CONNECTICUT AVE NW", "PHONE": "2023631559", "PRESENT90": "No", "PRESENT95": "No", "PRESENT00": "No", "PRESENT05": "No", "PRESENT08": "Yes", "NOTES": "Cleveland Park", "X_COORD": "394989.7", "Y_COORD": "140809.79", "ADDRESS_ID": "219254", "WARD": "Ward 3", "PRESENT09": "Yes", "PRESENT10": "Yes", "PRESENT11": "Yes", "PRESENT12": "Yes", "SSL": "2219    0005", "PRESENT13": "Yes", "PRESENT14": "Yes", "PRESENT15": "Yes", "PRESENT16": "Yes", "PRESENT17": "Yes", "ZIPCODE": "20008", "PRESENT18": "Yes", "GIS_ID": "GroceryStorePt_20" }, "geometry": { "type": "Point", "coordinates": [ -77.057790494214203, 38.935166426639299 ] } },
{ "type": "Feature", "properties": { "X": -77.0237955747602, "Y": 38.931155723023203, "OBJECTID": "21", "STORENAME": "Panam Grocery", "ADDRESS": "3552 14TH ST NW", "PHONE": "2025450290", "PRESENT90": "", "PRESENT95": "", "PRESENT00": "", "PRESENT05": "", "PRESENT08": "", "NOTES": "", "X_COORD": "397936.98", "Y_COORD": "140363.25", "ADDRESS_ID": "243394", "WARD": "Ward 1", "PRESENT09": "", "PRESENT10": "", "PRESENT11": "", "PRESENT12": "", "SSL": "2688    0054", "PRESENT13": "", "PRESENT14": "", "PRESENT15": "", "PRESENT16": "", "PRESENT17": "", "ZIPCODE": "20010", "PRESENT18": "", "GIS_ID": "GroceryStorePt_21" }, "geometry": { "type": "Point", "coordinates": [ -77.0237955747602, 38.931155723023203 ] } },
{ "type": "Feature", "properties": { "X": -77.038544389091996, "Y": 38.930943427143703, "OBJECTID": "22", "STORENAME": "BestWorld Super Market", "ADDRESS": "3178 MOUNT PLEASANT ST NW", "PHONE": "2022653768", "PRESENT90": "Yes", "PRESENT95": "Yes", "PRESENT00": "Yes", "PRESENT05": "Yes", "PRESENT08": "Yes", "NOTES": " ", "X_COORD": "396658.16", "Y_COORD": "140340.12", "ADDRESS_ID": "233149", "WARD": "Ward 1", "PRESENT09": "Yes", "PRESENT10": "Yes", "PRESENT11": "Yes", "PRESENT12": "Yes", "SSL": "2601    0667", "PRESENT13": "Yes", "PRESENT14": "Yes", "PRESENT15": "Yes", "PRESENT16": "Yes", "PRESENT17": "Yes", "ZIPCODE": "20010", "PRESENT18": "Yes", "GIS_ID": "GroceryStorePt_22" }, "geometry": { "type": "Point", "coordinates": [ -77.038544389091996, 38.930943427143703 ] } },
{ "type": "Feature", "properties": { "X": -77.031923690247197, "Y": 38.9308217390914, "OBJECTID": "23", "STORENAME": "Giant", "ADDRESS": "1345 PARK RD NW", "PHONE": "2027771077", "PRESENT90": "No", "PRESENT95": "No", "PRESENT00": "No", "PRESENT05": "No", "PRESENT08": "Yes", "NOTES": "Tivoli Square", "X_COORD": "397232.21", "Y_COORD": "140326.39", "ADDRESS_ID": "297595", "WARD": "Ward 1", "PRESENT09": "Yes", "PRESENT10": "Yes", "PRESENT11": "Yes", "PRESENT12": "Yes", "SSL": "2837    0079", "PRESENT13": "Yes", "PRESENT14": "Yes", "PRESENT15": "Yes", "PRESENT16": "Yes", "PRESENT17": "Yes", "ZIPCODE": "20010", "PRESENT18": "Yes", "GIS_ID": "GroceryStorePt_23" }, "geometry": { "type": "Point", "coordinates": [ -77.031923690247197, 38.9308217390914 ] } },
{ "type": "Feature", "properties": { "X": -77.038272616741693, "Y": 38.930205375500599, "OBJECTID": "24", "STORENAME": "El Progreso Market", "ADDRESS": "3158 MOUNT PLEASANT ST NW", "PHONE": "2024621151", "PRESENT90": "", "PRESENT95": "", "PRESENT00": "", "PRESENT05": "", "PRESENT08": "", "NOTES": "", "X_COORD": "396681.69", "Y_COORD": "140258.18", "ADDRESS_ID": "236467", "WARD": "Ward 1", "PRESENT09": "", "PRESENT10": "", "PRESENT11": "", "PRESENT12": "", "SSL": "2596    1055", "PRESENT13": "", "PRESENT14": "", "PRESENT15": "", "PRESENT16": "", "PRESENT17": "", "ZIPCODE": "20010", "PRESENT18": "", "GIS_ID": "GroceryStorePt_24" }, "geometry": { "type": "Point", "coordinates": [ -77.038272616741693, 38.930205375500599 ] } },
{ "type": "Feature", "properties": { "X": -76.974819151562201, "Y": 38.929450971217904, "OBJECTID": "25", "STORENAME": "Good Food Markets", "ADDRESS": "2006 RHODE ISLAND AVE NE", "PHONE": "2022488494", "PRESENT90": "", "PRESENT95": "", "PRESENT00": "", "PRESENT05": "", "PRESENT08": "", "NOTES": "", "X_COORD": "402183.58", "Y_COORD": "140174.04", "ADDRESS_ID": "53027", "WARD": "Ward 5", "PRESENT09": "", "PRESENT10": "", "PRESENT11": "", "PRESENT12": "", "SSL": "4219    0030", "PRESENT13": "", "PRESENT14": "", "PRESENT15": "", "PRESENT16": "", "PRESENT17": "", "ZIPCODE": "20018", "PRESENT18": "", "GIS_ID": "GroceryStorePt_25" }, "geometry": { "type": "Point", "coordinates": [ -76.974819151562201, 38.929450971217904 ] } },
{ "type": "Feature", "properties": { "X": -77.032986014679807, "Y": 38.929308227973301, "OBJECTID": "26", "STORENAME": "Target", "ADDRESS": "3100 14TH ST NW", "PHONE": "2027773773", "PRESENT90": "No", "PRESENT95": "No", "PRESENT00": "No", "PRESENT05": "No", "PRESENT08": "Yes", "NOTES": " ", "X_COORD": "397140.04", "Y_COORD": "140158.41", "ADDRESS_ID": "306304", "WARD": "Ward 1", "PRESENT09": "Yes", "PRESENT10": "Yes", "PRESENT11": "Yes", "PRESENT12": "Yes", "SSL": "2674    0721", "PRESENT13": "Yes", "PRESENT14": "Yes", "PRESENT15": "Yes", "PRESENT16": "Yes", "PRESENT17": "Yes", "ZIPCODE": "20010", "PRESENT18": "Yes", "GIS_ID": "GroceryStorePt_26" }, "geometry": { "type": "Point", "coordinates": [ -77.032986014679807, 38.929308227973301 ] } },
{ "type": "Feature", "properties": { "X": -77.040993862799894, "Y": 38.9242151834871, "OBJECTID": "27", "STORENAME": "Safeway", "ADDRESS": "1747 COLUMBIA RD NW", "PHONE": "2026670774", "PRESENT90": "Yes", "PRESENT95": "Yes", "PRESENT00": "Yes", "PRESENT05": "Yes", "PRESENT08": "Yes", "NOTES": " ", "X_COORD": "396445.44", "Y_COORD": "139593.32", "ADDRESS_ID": "284083", "WARD": "Ward 1", "PRESENT09": "Yes", "PRESENT10": "Yes", "PRESENT11": "Yes", "PRESENT12": "Yes", "SSL": "2580    0512", "PRESENT13": "Yes", "PRESENT14": "Yes", "PRESENT15": "Yes", "PRESENT16": "Yes", "PRESENT17": "Yes", "ZIPCODE": "20009", "PRESENT18": "Yes", "GIS_ID": "GroceryStorePt_27" }, "geometry": { "type": "Point", "coordinates": [ -77.040993862799894, 38.9242151834871 ] } },
{ "type": "Feature", "properties": { "X": -77.038441862382101, "Y": 38.921986941317101, "OBJECTID": "28", "STORENAME": "Harris Teeter", "ADDRESS": "1631 KALORAMA RD", "PHONE": "2029861415", "PRESENT90": "No", "PRESENT95": "No", "PRESENT00": "No", "PRESENT05": "No", "PRESENT08": "Yes", "NOTES": "Citadel", "X_COORD": "396666.63", "Y_COORD": "139345.87", "ADDRESS_ID": "284059", "WARD": "Ward 1", "PRESENT09": "Yes", "PRESENT10": "Yes", "PRESENT11": "Yes", "PRESENT12": "Yes", "SSL": "2572    0036", "PRESENT13": "Yes", "PRESENT14": "Yes", "PRESENT15": "Yes", "PRESENT16": "Yes", "PRESENT17": "Yes", "ZIPCODE": "20009", "PRESENT18": "Yes", "GIS_ID": "GroceryStorePt_28" }, "geometry": { "type": "Point", "coordinates": [ -77.038441862382101, 38.921986941317101 ] } },
{ "type": "Feature", "properties": { "X": -77.043710964906197, "Y": 38.921804472211598, "OBJECTID": "29", "STORENAME": "Yes! Organic", "ADDRESS": "1825 COLUMBIA RD NW", "PHONE": "2024625150", "PRESENT90": "No", "PRESENT95": "No", "PRESENT00": "No", "PRESENT05": "No", "PRESENT08": "Yes", "NOTES": "Adams Morgan", "X_COORD": "396209.7", "Y_COORD": "139325.82", "ADDRESS_ID": "295011", "WARD": "Ward 1", "PRESENT09": "Yes", "PRESENT10": "Yes", "PRESENT11": "Yes", "PRESENT12": "Yes", "SSL": "2549    0636", "PRESENT13": "Yes", "PRESENT14": "Yes", "PRESENT15": "Yes", "PRESENT16": "Yes", "PRESENT17": "Yes", "ZIPCODE": "20009", "PRESENT18": "Yes", "GIS_ID": "GroceryStorePt_29" }, "geometry": { "type": "Point", "coordinates": [ -77.043710964906197, 38.921804472211598 ] } },
{ "type": "Feature", "properties": { "X": -77.071615233131396, "Y": 38.920934280973299, "OBJECTID": "30", "STORENAME": "Whole Foods", "ADDRESS": "2323 WISCONSIN AVE NW", "PHONE": "2023335393", "PRESENT90": "No", "PRESENT95": "No", "PRESENT00": "Yes", "PRESENT05": "Yes", "PRESENT08": "Yes", "NOTES": "Georgetown", "X_COORD": "393789.84", "Y_COORD": "139230.75", "ADDRESS_ID": "284358", "WARD": "Ward 3", "PRESENT09": "Yes", "PRESENT10": "Yes", "PRESENT11": "Yes", "PRESENT12": "Yes", "SSL": "1299    1028", "PRESENT13": "Yes", "PRESENT14": "Yes", "PRESENT15": "Yes", "PRESENT16": "Yes", "PRESENT17": "Yes", "ZIPCODE": "20007", "PRESENT18": "Yes", "GIS_ID": "GroceryStorePt_30" }, "geometry": { "type": "Point", "coordinates": [ -77.071615233131396, 38.920934280973299 ] } },
{ "type": "Feature", "properties": { "X": -76.950881156174603, "Y": 38.9208509565686, "OBJECTID": "31", "STORENAME": "Costco Wholesale", "ADDRESS": "2441 MARKET ST NE", "PHONE": "2022698540", "PRESENT90": "No", "PRESENT95": "No", "PRESENT00": "No", "PRESENT05": "No", "PRESENT08": "No", "NOTES": "Costco", "X_COORD": "404259.71", "Y_COORD": "139220.21", "ADDRESS_ID": "309925", "WARD": "Ward 5", "PRESENT09": "No", "PRESENT10": "No", "PRESENT11": "No", "PRESENT12": "Yes", "SSL": "4327    0004", "PRESENT13": "Yes", "PRESENT14": "Yes", "PRESENT15": "Yes", "PRESENT16": "Yes", "PRESENT17": "Yes", "ZIPCODE": "20018", "PRESENT18": "Yes", "GIS_ID": "GroceryStorePt_31" }, "geometry": { "type": "Point", "coordinates": [ -76.950881156174603, 38.9208509565686 ] } },
{ "type": "Feature", "properties": { "X": -77.032085367933306, "Y": 38.920762105757603, "OBJECTID": "32", "STORENAME": "Streets Market", "ADDRESS": "2400 14TH ST NW", "PHONE": "2022653300", "PRESENT90": "No", "PRESENT95": "No", "PRESENT00": "No", "PRESENT05": "No", "PRESENT08": "No", "NOTES": "Street's", "X_COORD": "397217.8", "Y_COORD": "139209.69", "ADDRESS_ID": "234183", "WARD": "Ward 1", "PRESENT09": "No", "PRESENT10": "No", "PRESENT11": "No", "PRESENT12": "No", "SSL": "2661    0864", "PRESENT13": "No", "PRESENT14": "Yes", "PRESENT15": "Yes", "PRESENT16": "Yes", "PRESENT17": "Yes", "ZIPCODE": "20009", "PRESENT18": "Yes", "GIS_ID": "GroceryStorePt_32" }, "geometry": { "type": "Point", "coordinates": [ -77.032085367933306, 38.920762105757603 ] } },
{ "type": "Feature", "properties": { "X": -77.043542076918996, "Y": 38.9207560561591, "OBJECTID": "33", "STORENAME": "Streets Market", "ADDRESS": "1864 COLUMBIA RD NW", "PHONE": "2027580658", "PRESENT90": "", "PRESENT95": "", "PRESENT00": "", "PRESENT05": "", "PRESENT08": "", "NOTES": "", "X_COORD": "396224.29", "Y_COORD": "139209.43", "ADDRESS_ID": "235402", "WARD": "Ward 1", "PRESENT09": "", "PRESENT10": "", "PRESENT11": "", "PRESENT12": "", "SSL": "2551    0063", "PRESENT13": "", "PRESENT14": "", "PRESENT15": "", "PRESENT16": "", "PRESENT17": "", "ZIPCODE": "20009", "PRESENT18": "", "GIS_ID": "GroceryStorePt_33" }, "geometry": { "type": "Point", "coordinates": [ -77.043542076918996, 38.9207560561591 ] } },
{ "type": "Feature", "properties": { "X": -76.992430934482798, "Y": 38.919229805772098, "OBJECTID": "34", "STORENAME": "Giant", "ADDRESS": "1050 BRENTWOOD RD NE", "PHONE": "2022813900", "PRESENT90": "No", "PRESENT95": "No", "PRESENT00": "No", "PRESENT05": "Yes", "PRESENT08": "Yes", "NOTES": " ", "X_COORD": "400656.59", "Y_COORD": "139039.13", "ADDRESS_ID": "299835", "WARD": "Ward 5", "PRESENT09": "Yes", "PRESENT10": "Yes", "PRESENT11": "Yes", "PRESENT12": "Yes", "SSL": "3854    0802", "PRESENT13": "Yes", "PRESENT14": "Yes", "PRESENT15": "Yes", "PRESENT16": "Yes", "PRESENT17": "Yes", "ZIPCODE": "20018", "PRESENT18": "Yes", "GIS_ID": "GroceryStorePt_34" }, "geometry": { "type": "Point", "coordinates": [ -76.992430934482798, 38.919229805772098 ] } },
{ "type": "Feature", "properties": { "X": -77.031619750087501, "Y": 38.918506727360203, "OBJECTID": "35", "STORENAME": "Yes! Organic", "ADDRESS": "2123 14TH ST NW", "PHONE": "2022326603", "PRESENT90": "No", "PRESENT95": "No", "PRESENT00": "No", "PRESENT05": "No", "PRESENT08": "Yes", "NOTES": "U Street", "X_COORD": "397258.09", "Y_COORD": "138959.31", "ADDRESS_ID": "306454", "WARD": "Ward 1", "PRESENT09": "Yes", "PRESENT10": "Yes", "PRESENT11": "Yes", "PRESENT12": "Yes", "SSL": "0235    0204", "PRESENT13": "Yes", "PRESENT14": "Yes", "PRESENT15": "Yes", "PRESENT16": "Yes", "PRESENT17": "Yes", "ZIPCODE": "20009", "PRESENT18": "Yes", "GIS_ID": "GroceryStorePt_35" }, "geometry": { "type": "Point", "coordinates": [ -77.031619750087501, 38.918506727360203 ] } },
{ "type": "Feature", "properties": { "X": -77.068688269714201, "Y": 38.917312977280297, "OBJECTID": "36", "STORENAME": "Trader Joe's", "ADDRESS": "2101 WISCONSIN AVE NW # A", "PHONE": "2029448403", "PRESENT90": "", "PRESENT95": "", "PRESENT00": "", "PRESENT05": "", "PRESENT08": "", "NOTES": "", "X_COORD": "394043.36", "Y_COORD": "138828.56", "ADDRESS_ID": "279531", "WARD": "Ward 3", "PRESENT09": "", "PRESENT10": "", "PRESENT11": "", "PRESENT12": "", "SSL": "1299    0321", "PRESENT13": "", "PRESENT14": "", "PRESENT15": "", "PRESENT16": "", "PRESENT17": "", "ZIPCODE": "20007", "PRESENT18": "", "GIS_ID": "GroceryStorePt_36" }, "geometry": { "type": "Point", "coordinates": [ -77.068688269714201, 38.917312977280297 ] } },
{ "type": "Feature", "properties": { "X": -76.982012814031293, "Y": 38.916267988542899, "OBJECTID": "37", "STORENAME": "Target ", "ADDRESS": "1515 NEW YORK AVE NE", "PHONE": "2029142396", "PRESENT90": "", "PRESENT95": "", "PRESENT00": "", "PRESENT05": "", "PRESENT08": "", "NOTES": "", "X_COORD": "401560.12", "Y_COORD": "138710.47", "ADDRESS_ID": "311951", "WARD": "Ward 5", "PRESENT09": "", "PRESENT10": "", "PRESENT11": "", "PRESENT12": "", "SSL": "4037    0011", "PRESENT13": "", "PRESENT14": "", "PRESENT15": "", "PRESENT16": "", "PRESENT17": "", "ZIPCODE": "20002", "PRESENT18": "", "GIS_ID": "GroceryStorePt_37" }, "geometry": { "type": "Point", "coordinates": [ -76.982012814031293, 38.916267988542899 ] } },
{ "type": "Feature", "properties": { "X": -77.067560912637305, "Y": 38.916125885522398, "OBJECTID": "38", "STORENAME": "Safeway", "ADDRESS": "1855 WISCONSIN AVE NW", "PHONE": "2023333223", "PRESENT90": "Yes", "PRESENT95": "No", "PRESENT00": "No", "PRESENT05": "Yes", "PRESENT08": "Yes", "NOTES": " ", "X_COORD": "394141.03", "Y_COORD": "138696.71", "ADDRESS_ID": "224665", "WARD": "Ward 2", "PRESENT09": "Yes", "PRESENT10": "Yes", "PRESENT11": "Yes", "PRESENT12": "Yes", "SSL": "1299    1040", "PRESENT13": "Yes", "PRESENT14": "Yes", "PRESENT15": "Yes", "PRESENT16": "Yes", "PRESENT17": "Yes", "ZIPCODE": "20007", "PRESENT18": "Yes", "GIS_ID": "GroceryStorePt_38" }, "geometry": { "type": "Point", "coordinates": [ -77.067560912637305, 38.916125885522398 ] } },
{ "type": "Feature", "properties": { "X": -77.032245612873297, "Y": 38.916100881119803, "OBJECTID": "39", "STORENAME": "Trader Joe's", "ADDRESS": "1914 14TH ST NW", "PHONE": "2029861591", "PRESENT90": "No", "PRESENT95": "No", "PRESENT00": "No", "PRESENT05": "No", "PRESENT08": "No", "NOTES": "14th Street NW", "X_COORD": "397203.72", "Y_COORD": "138692.26", "ADDRESS_ID": "302384", "WARD": "Ward 2", "PRESENT09": "No", "PRESENT10": "No", "PRESENT11": "No", "PRESENT12": "No", "SSL": "0205    0847", "PRESENT13": "No", "PRESENT14": "Yes", "PRESENT15": "Yes", "PRESENT16": "Yes", "PRESENT17": "Yes", "ZIPCODE": "20009", "PRESENT18": "Yes", "GIS_ID": "GroceryStorePt_39" }, "geometry": { "type": "Point", "coordinates": [ -77.032245612873297, 38.916100881119803 ] } },
{ "type": "Feature", "properties": { "X": -76.983593186358405, "Y": 38.915951668239103, "OBJECTID": "40", "STORENAME": "Mom's Organic Market", "ADDRESS": "1501 NEW YORK AVE NE", "PHONE": "2027913826", "PRESENT90": "No", "PRESENT95": "No", "PRESENT00": "No", "PRESENT05": "No", "PRESENT08": "No", "NOTES": "Mom's", "X_COORD": "401423.07", "Y_COORD": "138675.33", "ADDRESS_ID": "311943", "WARD": "Ward 5", "PRESENT09": "No", "PRESENT10": "No", "PRESENT11": "No", "PRESENT12": "No", "SSL": "4037    0821", "PRESENT13": "No", "PRESENT14": "Yes", "PRESENT15": "Yes", "PRESENT16": "Yes", "PRESENT17": "Yes", "ZIPCODE": "20002", "PRESENT18": "Yes", "GIS_ID": "GroceryStorePt_40" }, "geometry": { "type": "Point", "coordinates": [ -76.983593186358405, 38.915951668239103 ] } },
{ "type": "Feature", "properties": { "X": -77.045200017707401, "Y": 38.914284831313097, "OBJECTID": "41", "STORENAME": "Glen's Garden Market", "ADDRESS": "2001 S ST  NW", "PHONE": "2025885698", "PRESENT90": "", "PRESENT95": "", "PRESENT00": "", "PRESENT05": "", "PRESENT08": "", "NOTES": "", "X_COORD": "396080.16", "Y_COORD": "138491.14", "ADDRESS_ID": "242564", "WARD": "Ward 2", "PRESENT09": "", "PRESENT10": "", "PRESENT11": "", "PRESENT12": "", "SSL": "0090    0032", "PRESENT13": "", "PRESENT14": "", "PRESENT15": "", "PRESENT16": "", "PRESENT17": "", "ZIPCODE": "20009", "PRESENT18": "", "GIS_ID": "GroceryStorePt_41" }, "geometry": { "type": "Point", "coordinates": [ -77.045200017707401, 38.914284831313097 ] } },
{ "type": "Feature", "properties": { "X": -77.038955827994499, "Y": 38.912057515958999, "OBJECTID": "42", "STORENAME": "Safeway", "ADDRESS": "1701 CORCORAN ST NW", "PHONE": "2026676825", "PRESENT90": "Yes", "PRESENT95": "Yes", "PRESENT00": "Yes", "PRESENT05": "Yes", "PRESENT08": "Yes", "NOTES": " ", "X_COORD": "396621.59", "Y_COORD": "138243.64", "ADDRESS_ID": "241699", "WARD": "Ward 2", "PRESENT09": "Yes", "PRESENT10": "Yes", "PRESENT11": "Yes", "PRESENT12": "Yes", "SSL": "0155    0231", "PRESENT13": "Yes", "PRESENT14": "Yes", "PRESENT15": "Yes", "PRESENT16": "Yes", "PRESENT17": "Yes", "ZIPCODE": "20009", "PRESENT18": "Yes", "GIS_ID": "GroceryStorePt_42" }, "geometry": { "type": "Point", "coordinates": [ -77.038955827994499, 38.912057515958999 ] } },
{ "type": "Feature", "properties": { "X": -77.0483654643336, "Y": 38.9094901349361, "OBJECTID": "43", "STORENAME": "Metro Supermarket", "ADDRESS": "2130 P ST NW #5", "PHONE": "2028333720", "PRESENT90": "", "PRESENT95": "", "PRESENT00": "", "PRESENT05": "", "PRESENT08": "", "NOTES": "", "X_COORD": "395805.35", "Y_COORD": "137959.03", "ADDRESS_ID": "298500", "WARD": "Ward 2", "PRESENT09": "", "PRESENT10": "", "PRESENT11": "", "PRESENT12": "", "SSL": "0068    0088", "PRESENT13": "", "PRESENT14": "", "PRESENT15": "", "PRESENT16": "", "PRESENT17": "", "ZIPCODE": "20037", "PRESENT18": "", "GIS_ID": "GroceryStorePt_43" }, "geometry": { "type": "Point", "coordinates": [ -77.0483654643336, 38.9094901349361 ] } },
{ "type": "Feature", "properties": { "X": -77.022125305245098, "Y": 38.9087707170711, "OBJECTID": "44", "STORENAME": "Giant", "ADDRESS": "1400 7TH ST NW", "PHONE": "2022380180", "PRESENT90": "No", "PRESENT95": "No", "PRESENT00": "No", "PRESENT05": "No", "PRESENT08": "No", "NOTES": "O Street Market", "X_COORD": "398081.2", "Y_COORD": "137878.29", "ADDRESS_ID": "304153", "WARD": "Ward 6", "PRESENT09": "No", "PRESENT10": "No", "PRESENT11": "No", "PRESENT12": "No", "SSL": "0398    0836", "PRESENT13": "Yes", "PRESENT14": "Yes", "PRESENT15": "Yes", "PRESENT16": "Yes", "PRESENT17": "Yes", "ZIPCODE": "20001", "PRESENT18": "Yes", "GIS_ID": "GroceryStorePt_44" }, "geometry": { "type": "Point", "coordinates": [ -77.022125305245098, 38.9087707170711 ] } },
{ "type": "Feature", "properties": { "X": -77.000565369417501, "Y": 38.907587582767299, "OBJECTID": "45", "STORENAME": "Trader Joe's", "ADDRESS": "1240 4TH ST NE", "PHONE": "0", "PRESENT90": "No", "PRESENT95": "No", "PRESENT00": "No", "PRESENT05": "No", "PRESENT08": "No", "NOTES": " ", "X_COORD": "399951.16", "Y_COORD": "137746.72", "ADDRESS_ID": "285974", "WARD": "Ward 5", "PRESENT09": "No", "PRESENT10": "No", "PRESENT11": "No", "PRESENT12": "No", "SSL": "3587    0820", "PRESENT13": "No", "PRESENT14": "No", "PRESENT15": "No", "PRESENT16": "No", "PRESENT17": "No", "ZIPCODE": "20002", "PRESENT18": "No", "GIS_ID": "GroceryStorePt_45" }, "geometry": { "type": "Point", "coordinates": [ -77.000565369417501, 38.907587582767299 ] } },
{ "type": "Feature", "properties": { "X": -77.026692357623901, "Y": 38.906798195831897, "OBJECTID": "46", "STORENAME": "Capitol Super Market", "ADDRESS": "1231 11TH ST NW", "PHONE": "2022891336", "PRESENT90": "No", "PRESENT95": "No", "PRESENT00": "No", "PRESENT05": "No", "PRESENT08": "Yes", "NOTES": " ", "X_COORD": "397685.02", "Y_COORD": "137659.43", "ADDRESS_ID": "239341", "WARD": "Ward 2", "PRESENT09": "Yes", "PRESENT10": "Yes", "PRESENT11": "Yes", "PRESENT12": "Yes", "SSL": "0340    0824", "PRESENT13": "Yes", "PRESENT14": "Yes", "PRESENT15": "Yes", "PRESENT16": "Yes", "PRESENT17": "Yes", "ZIPCODE": "20001", "PRESENT18": "Yes", "GIS_ID": "GroceryStorePt_46" }, "geometry": { "type": "Point", "coordinates": [ -77.026692357623901, 38.906798195831897 ] } },
{ "type": "Feature", "properties": { "X": -77.048363335264398, "Y": 38.906690431214201, "OBJECTID": "47", "STORENAME": "Streets Market", "ADDRESS": "1255 22ND ST NW", "PHONE": "2026520843", "PRESENT90": "", "PRESENT95": "", "PRESENT00": "", "PRESENT05": "", "PRESENT08": "", "NOTES": "", "X_COORD": "395805.37", "Y_COORD": "137648.24", "ADDRESS_ID": "242473", "WARD": "Ward 2", "PRESENT09": "", "PRESENT10": "", "PRESENT11": "", "PRESENT12": "", "SSL": "0070    0198", "PRESENT13": "", "PRESENT14": "", "PRESENT15": "", "PRESENT16": "", "PRESENT17": "", "ZIPCODE": "20037", "PRESENT18": "", "GIS_ID": "GroceryStorePt_47" }, "geometry": { "type": "Point", "coordinates": [ -77.048363335264398, 38.906690431214201 ] } },
{ "type": "Feature", "properties": { "X": -77.005494549256795, "Y": 38.906023064916504, "OBJECTID": "48", "STORENAME": "Harris Teeter", "ADDRESS": "1201 1ST ST NE", "PHONE": "2029861415", "PRESENT90": "No", "PRESENT95": "No", "PRESENT00": "No", "PRESENT05": "No", "PRESENT08": "No", "NOTES": " ", "X_COORD": "399523.62", "Y_COORD": "137573.06", "ADDRESS_ID": "303728", "WARD": "Ward 6", "PRESENT09": "No", "PRESENT10": "No", "PRESENT11": "Yes", "PRESENT12": "Yes", "SSL": "0711    0816", "PRESENT13": "Yes", "PRESENT14": "Yes", "PRESENT15": "Yes", "PRESENT16": "Yes", "PRESENT17": "Yes", "ZIPCODE": "20002", "PRESENT18": "Yes", "GIS_ID": "GroceryStorePt_48" }, "geometry": { "type": "Point", "coordinates": [ -77.005494549256795, 38.906023064916504 ] } },
{ "type": "Feature", "properties": { "X": -77.007271136992301, "Y": 38.905462558310496, "OBJECTID": "49", "STORENAME": "Streets Market", "ADDRESS": "51 M ST NE ", "PHONE": "2028981314", "PRESENT90": "", "PRESENT95": "", "PRESENT00": "", "PRESENT05": "", "PRESENT08": "", "NOTES": "", "X_COORD": "399369.52", "Y_COORD": "137510.85", "ADDRESS_ID": "314143", "WARD": "Ward 6", "PRESENT09": "", "PRESENT10": "", "PRESENT11": "", "PRESENT12": "", "SSL": "0673    0035", "PRESENT13": "", "PRESENT14": "", "PRESENT15": "", "PRESENT16": "", "PRESENT17": "", "ZIPCODE": "20002", "PRESENT18": "", "GIS_ID": "GroceryStorePt_49" }, "geometry": { "type": "Point", "coordinates": [ -77.007271136992301, 38.905462558310496 ] } },
{ "type": "Feature", "properties": { "X": -77.065150399267097, "Y": 38.9047675504914, "OBJECTID": "50", "STORENAME": "Dean & DeLuca", "ADDRESS": "3276 M ST NW", "PHONE": "2023422500", "PRESENT90": "No", "PRESENT95": "No", "PRESENT00": "No", "PRESENT05": "No", "PRESENT08": "Yes", "NOTES": "Georgetown", "X_COORD": "394349.18", "Y_COORD": "137435.69", "ADDRESS_ID": "273712", "WARD": "Ward 2", "PRESENT09": "Yes", "PRESENT10": "Yes", "PRESENT11": "Yes", "PRESENT12": "Yes", "SSL": "1186    0800", "PRESENT13": "Yes", "PRESENT14": "Yes", "PRESENT15": "Yes", "PRESENT16": "Yes", "PRESENT17": "Yes", "ZIPCODE": "20007", "PRESENT18": "Yes", "GIS_ID": "GroceryStorePt_50" }, "geometry": { "type": "Point", "coordinates": [ -77.065150399267097, 38.9047675504914 ] } },
{ "type": "Feature", "properties": { "X": -77.053014457997705, "Y": 38.904198954892799, "OBJECTID": "51", "STORENAME": "Trader Joe's", "ADDRESS": "1101 25TH ST NW", "PHONE": "2022961921", "PRESENT90": "No", "PRESENT95": "No", "PRESENT00": "No", "PRESENT05": "No", "PRESENT08": "Yes", "NOTES": "West End", "X_COORD": "395401.79", "Y_COORD": "137371.89", "ADDRESS_ID": "303613", "WARD": "Ward 2", "PRESENT09": "Yes", "PRESENT10": "Yes", "PRESENT11": "Yes", "PRESENT12": "Yes", "SSL": "0025    0022", "PRESENT13": "Yes", "PRESENT14": "Yes", "PRESENT15": "Yes", "PRESENT16": "Yes", "PRESENT17": "Yes", "ZIPCODE": "20037", "PRESENT18": "Yes", "GIS_ID": "GroceryStorePt_51" }, "geometry": { "type": "Point", "coordinates": [ -77.053014457997705, 38.904198954892799 ] } },
{ "type": "Feature", "properties": { "X": -77.018354905875697, "Y": 38.903496800891702, "OBJECTID": "52", "STORENAME": "Safeway", "ADDRESS": "490 L ST NW", "PHONE": "2027192435", "PRESENT90": "No", "PRESENT95": "No", "PRESENT00": "No", "PRESENT05": "No", "PRESENT08": "Yes", "NOTES": "Mt. Vernon Square", "X_COORD": "398408.1", "Y_COORD": "137292.77", "ADDRESS_ID": "304767", "WARD": "Ward 6", "PRESENT09": "Yes", "PRESENT10": "Yes", "PRESENT11": "Yes", "PRESENT12": "Yes", "SSL": "0515    0158", "PRESENT13": "Yes", "PRESENT14": "Yes", "PRESENT15": "Yes", "PRESENT16": "Yes", "PRESENT17": "Yes", "ZIPCODE": "20001", "PRESENT18": "Yes", "GIS_ID": "GroceryStorePt_52" }, "geometry": { "type": "Point", "coordinates": [ -77.018354905875697, 38.903496800891702 ] } },
{ "type": "Feature", "properties": { "X": -77.049069913768605, "Y": 38.900918573338203, "OBJECTID": "53", "STORENAME": "Whole Foods", "ADDRESS": "2201 EYE ST NW", "PHONE": "2022961660", "PRESENT90": "No", "PRESENT95": "No", "PRESENT00": "No", "PRESENT05": "No", "PRESENT08": "No", "NOTES": "Foggy Bottom", "X_COORD": "395743.74", "Y_COORD": "137007.55", "ADDRESS_ID": "310098", "WARD": "Ward 2", "PRESENT09": "No", "PRESENT10": "No", "PRESENT11": "Yes", "PRESENT12": "Yes", "SSL": "0054    7011", "PRESENT13": "Yes", "PRESENT14": "Yes", "PRESENT15": "Yes", "PRESENT16": "Yes", "PRESENT17": "Yes", "ZIPCODE": "20037", "PRESENT18": "Yes", "GIS_ID": "GroceryStorePt_53" }, "geometry": { "type": "Point", "coordinates": [ -77.049069913768605, 38.900918573338203 ] } },
{ "type": "Feature", "properties": { "X": -76.979772316624405, "Y": 38.9005750820888, "OBJECTID": "54", "STORENAME": "Safeway", "ADDRESS": "1601 MARYLAND AVE NE", "PHONE": "2023986903", "PRESENT90": "No", "PRESENT95": "No", "PRESENT00": "Yes", "PRESENT05": "Yes", "PRESENT08": "Yes", "NOTES": " ", "X_COORD": "401754.81", "Y_COORD": "136968.47", "ADDRESS_ID": "297814", "WARD": "Ward 5", "PRESENT09": "Yes", "PRESENT10": "Yes", "PRESENT11": "Yes", "PRESENT12": "Yes", "SSL": "4493    0001", "PRESENT13": "Yes", "PRESENT14": "Yes", "PRESENT15": "Yes", "PRESENT16": "Yes", "PRESENT17": "Yes", "ZIPCODE": "20002", "PRESENT18": "Yes", "GIS_ID": "GroceryStorePt_54" }, "geometry": { "type": "Point", "coordinates": [ -76.979772316624405, 38.9005750820888 ] } },
{ "type": "Feature", "properties": { "X": -77.001647021263594, "Y": 38.900437822269403, "OBJECTID": "55", "STORENAME": "Giant", "ADDRESS": "300 H ST NE", "PHONE": "2025485100", "PRESENT90": "No", "PRESENT95": "No", "PRESENT00": "No", "PRESENT05": "No", "PRESENT08": "No", "NOTES": "H Street NE", "X_COORD": "399857.33", "Y_COORD": "136953.04", "ADDRESS_ID": "308511", "WARD": "Ward 6", "PRESENT09": "No", "PRESENT10": "No", "PRESENT11": "No", "PRESENT12": "No", "SSL": "0776    0054", "PRESENT13": "Yes", "PRESENT14": "Yes", "PRESENT15": "Yes", "PRESENT16": "Yes", "PRESENT17": "Yes", "ZIPCODE": "20002", "PRESENT18": "Yes", "GIS_ID": "GroceryStorePt_55" }, "geometry": { "type": "Point", "coordinates": [ -77.001647021263594, 38.900437822269403 ] } },
{ "type": "Feature", "properties": { "X": -77.0119870632264, "Y": 38.900404338203202, "OBJECTID": "56", "STORENAME": "Walmart Supercenter", "ADDRESS": "99 H ST NW", "PHONE": "2027192110", "PRESENT90": "No", "PRESENT95": "No", "PRESENT00": "No", "PRESENT05": "No", "PRESENT08": "No", "NOTES": "H Street", "X_COORD": "398960.4", "Y_COORD": "136949.39", "ADDRESS_ID": "310062", "WARD": "Ward 6", "PRESENT09": "No", "PRESENT10": "No", "PRESENT11": "No", "PRESENT12": "No", "SSL": "0623    0836", "PRESENT13": "Yes", "PRESENT14": "Yes", "PRESENT15": "Yes", "PRESENT16": "Yes", "PRESENT17": "Yes", "ZIPCODE": "20001", "PRESENT18": "Yes", "GIS_ID": "GroceryStorePt_56" }, "geometry": { "type": "Point", "coordinates": [ -77.0119870632264, 38.900404338203202 ] } },
{ "type": "Feature", "properties": { "X": -76.998147386441303, "Y": 38.900404488321399, "OBJECTID": "57", "STORENAME": "Whole Foods", "ADDRESS": "600 H ST NE", "PHONE": "2024697410", "PRESENT90": "No", "PRESENT95": "No", "PRESENT00": "No", "PRESENT05": "No", "PRESENT08": "No", "NOTES": " ", "X_COORD": "400160.9", "Y_COORD": "136949.34", "ADDRESS_ID": "311750", "WARD": "Ward 6", "PRESENT09": "No", "PRESENT10": "No", "PRESENT11": "No", "PRESENT12": "No", "SSL": "0858    0866", "PRESENT13": "No", "PRESENT14": "No", "PRESENT15": "No", "PRESENT16": "No", "PRESENT17": "Yes", "ZIPCODE": "20002", "PRESENT18": "Yes", "GIS_ID": "GroceryStorePt_57" }, "geometry": { "type": "Point", "coordinates": [ -76.998147386441303, 38.900404488321399 ] } },
{ "type": "Feature", "properties": { "X": -77.051143716978302, "Y": 38.896534304119598, "OBJECTID": "58", "STORENAME": "Market at Columbia Plaza", "ADDRESS": "516 23RD ST NW", "PHONE": "2022233517", "PRESENT90": "", "PRESENT95": "", "PRESENT00": "", "PRESENT05": "", "PRESENT08": "", "NOTES": "", "X_COORD": "395563.58", "Y_COORD": "136520.96", "ADDRESS_ID": "298798", "WARD": "Ward 2", "PRESENT09": "", "PRESENT10": "", "PRESENT11": "", "PRESENT12": "", "SSL": "0033    0087", "PRESENT13": "", "PRESENT14": "", "PRESENT15": "", "PRESENT16": "", "PRESENT17": "", "ZIPCODE": "20037", "PRESENT18": "", "GIS_ID": "GroceryStorePt_58" }, "geometry": { "type": "Point", "coordinates": [ -77.051143716978302, 38.896534304119598 ] } },
{ "type": "Feature", "properties": { "X": -76.995525919654895, "Y": 38.884741560670101, "OBJECTID": "59", "STORENAME": "Trader Joe's", "ADDRESS": "750 PENNSYLVANIA AVE SE", "PHONE": "2026980190", "PRESENT90": "No", "PRESENT95": "No", "PRESENT00": "No", "PRESENT05": "No", "PRESENT08": "No", "NOTES": " ", "X_COORD": "400388.38", "Y_COORD": "135210.64", "ADDRESS_ID": "313096", "WARD": "Ward 6", "PRESENT09": "No", "PRESENT10": "No", "PRESENT11": "No", "PRESENT12": "No", "SSL": "0901    0804", "PRESENT13": "No", "PRESENT14": "No", "PRESENT15": "No", "PRESENT16": "No", "PRESENT17": "Yes", "ZIPCODE": "20003", "PRESENT18": "Yes", "GIS_ID": "GroceryStorePt_77" }, "geometry": { "type": "Point", "coordinates": [ -76.995525919654895, 38.884741560670101 ] } },
{ "type": "Feature", "properties": { "X": -76.986551508030303, "Y": 38.883549062855501, "OBJECTID": "60", "STORENAME": "Safeway", "ADDRESS": "415 14TH ST SE", "PHONE": "2025474333", "PRESENT90": "Yes", "PRESENT95": "Yes", "PRESENT00": "Yes", "PRESENT05": "Yes", "PRESENT08": "Yes", "NOTES": " ", "X_COORD": "401167.04", "Y_COORD": "135078.34", "ADDRESS_ID": "26239", "WARD": "Ward 6", "PRESENT09": "Yes", "PRESENT10": "Yes", "PRESENT11": "Yes", "PRESENT12": "Yes", "SSL": "1042    0829", "PRESENT13": "Yes", "PRESENT14": "Yes", "PRESENT15": "Yes", "PRESENT16": "Yes", "PRESENT17": "Yes", "ZIPCODE": "20003", "PRESENT18": "Yes", "GIS_ID": "GroceryStorePt_60" }, "geometry": { "type": "Point", "coordinates": [ -76.986551508030303, 38.883549062855501 ] } },
{ "type": "Feature", "properties": { "X": -76.994663550318194, "Y": 38.883390266617702, "OBJECTID": "61", "STORENAME": "Yes! Organic", "ADDRESS": "410 8TH ST SE", "PHONE": "2025469850", "PRESENT90": "No", "PRESENT95": "No", "PRESENT00": "No", "PRESENT05": "No", "PRESENT08": "Yes", "NOTES": "Capitol Hill", "X_COORD": "400463.21", "Y_COORD": "135060.64", "ADDRESS_ID": "300093", "WARD": "Ward 6", "PRESENT09": "Yes", "PRESENT10": "Yes", "PRESENT11": "Yes", "PRESENT12": "Yes", "SSL": "0925    0026", "PRESENT13": "Yes", "PRESENT14": "Yes", "PRESENT15": "Yes", "PRESENT16": "Yes", "PRESENT17": "Yes", "ZIPCODE": "20003", "PRESENT18": "Yes", "GIS_ID": "GroceryStorePt_61" }, "geometry": { "type": "Point", "coordinates": [ -76.994663550318194, 38.883390266617702 ] } },
{ "type": "Feature", "properties": { "X": -77.004713014936399, "Y": 38.880285371771002, "OBJECTID": "62", "STORENAME": "Whole Foods Market", "ADDRESS": "101 H ST SE", "PHONE": "2024697280", "PRESENT90": "", "PRESENT95": "", "PRESENT00": "", "PRESENT05": "", "PRESENT08": "", "NOTES": "", "X_COORD": "399591.26", "Y_COORD": "134715.97", "ADDRESS_ID": "315544", "WARD": "Ward 6", "PRESENT09": "", "PRESENT10": "", "PRESENT11": "", "PRESENT12": "", "SSL": "0737    0827", "PRESENT13": "", "PRESENT14": "", "PRESENT15": "", "PRESENT16": "", "PRESENT17": "", "ZIPCODE": "20003", "PRESENT18": "", "GIS_ID": "GroceryStorePt_62" }, "geometry": { "type": "Point", "coordinates": [ -77.004713014936399, 38.880285371771002 ] } },
{ "type": "Feature", "properties": { "X": -76.986624975310406, "Y": 38.880209661423599, "OBJECTID": "63", "STORENAME": "Harris Teeter", "ADDRESS": "1350 POTOMAC AVE SE", "PHONE": "2025431040", "PRESENT90": "No", "PRESENT95": "No", "PRESENT00": "No", "PRESENT05": "No", "PRESENT08": "Yes", "NOTES": "Jenkins Row", "X_COORD": "401160.72", "Y_COORD": "134707.64", "ADDRESS_ID": "303730", "WARD": "Ward 6", "PRESENT09": "Yes", "PRESENT10": "Yes", "PRESENT11": "Yes", "PRESENT12": "Yes", "SSL": "1045    0138", "PRESENT13": "Yes", "PRESENT14": "Yes", "PRESENT15": "Yes", "PRESENT16": "Yes", "PRESENT17": "Yes", "ZIPCODE": "20003", "PRESENT18": "Yes", "GIS_ID": "GroceryStorePt_63" }, "geometry": { "type": "Point", "coordinates": [ -76.986624975310406, 38.880209661423599 ] } },
{ "type": "Feature", "properties": { "X": -77.017161805343704, "Y": 38.877621504691099, "OBJECTID": "64", "STORENAME": "Safeway", "ADDRESS": "1100 4TH ST SW", "PHONE": "2025549155", "PRESENT90": "No", "PRESENT95": "Yes", "PRESENT00": "Yes", "PRESENT05": "Yes", "PRESENT08": "Yes", "NOTES": " ", "X_COORD": "398511.05", "Y_COORD": "134420.39", "ADDRESS_ID": "307170", "WARD": "Ward 6", "PRESENT09": "Yes", "PRESENT10": "Yes", "PRESENT11": "Yes", "PRESENT12": "Yes", "SSL": "0542    0872", "PRESENT13": "Yes", "PRESENT14": "Yes", "PRESENT15": "Yes", "PRESENT16": "Yes", "PRESENT17": "Yes", "ZIPCODE": "20024", "PRESENT18": "Yes", "GIS_ID": "GroceryStorePt_64" }, "geometry": { "type": "Point", "coordinates": [ -77.017161805343704, 38.877621504691099 ] } },
{ "type": "Feature", "properties": { "X": -77.000096551304296, "Y": 38.876224302397297, "OBJECTID": "65", "STORENAME": "Harris Teeter", "ADDRESS": "401 M ST SE", "PHONE": "2025540164", "PRESENT90": "No", "PRESENT95": "No", "PRESENT00": "No", "PRESENT05": "No", "PRESENT08": "No", "NOTES": "Navy Yard", "X_COORD": "399991.82", "Y_COORD": "134265.15", "ADDRESS_ID": "309432", "WARD": "Ward 6", "PRESENT09": "No", "PRESENT10": "No", "PRESENT11": "No", "PRESENT12": "No", "SSL": "0771    0811", "PRESENT13": "No", "PRESENT14": "Yes", "PRESENT15": "Yes", "PRESENT16": "Yes", "PRESENT17": "Yes", "ZIPCODE": "20003", "PRESENT18": "Yes", "GIS_ID": "GroceryStorePt_65" }, "geometry": { "type": "Point", "coordinates": [ -77.000096551304296, 38.876224302397297 ] } },
{ "type": "Feature", "properties": { "X": -76.9666732231384, "Y": 38.859032219035598, "OBJECTID": "66", "STORENAME": "Safeway", "ADDRESS": "2845 ALABAMA  AVE SE", "PHONE": "2025757525", "PRESENT90": "No", "PRESENT95": "No", "PRESENT00": "Yes", "PRESENT05": "Yes", "PRESENT08": "Yes", "NOTES": " ", "X_COORD": "402892.75", "Y_COORD": "132357.23", "ADDRESS_ID": "278282", "WARD": "Ward 7", "PRESENT09": "Yes", "PRESENT10": "Yes", "PRESENT11": "Yes", "PRESENT12": "Yes", "SSL": "5642    0001", "PRESENT13": "Yes", "PRESENT14": "Yes", "PRESENT15": "Yes", "PRESENT16": "Yes", "PRESENT17": "Yes", "ZIPCODE": "20020", "PRESENT18": "Yes", "GIS_ID": "GroceryStorePt_66" }, "geometry": { "type": "Point", "coordinates": [ -76.9666732231384, 38.859032219035598 ] } },
{ "type": "Feature", "properties": { "X": -76.980999330997506, "Y": 38.844949480177, "OBJECTID": "67", "STORENAME": "Giant", "ADDRESS": "1535 ALABAMA AVE SE", "PHONE": "2026106464", "PRESENT90": "No", "PRESENT95": "No", "PRESENT00": "No", "PRESENT05": "No", "PRESENT08": "Yes", "NOTES": "Camp Simms", "X_COORD": "401649.66", "Y_COORD": "130793.59", "ADDRESS_ID": "306557", "WARD": "Ward 8", "PRESENT09": "Yes", "PRESENT10": "Yes", "PRESENT11": "Yes", "PRESENT12": "Yes", "SSL": "5912    0818", "PRESENT13": "Yes", "PRESENT14": "Yes", "PRESENT15": "Yes", "PRESENT16": "Yes", "PRESENT17": "Yes", "ZIPCODE": "20032", "PRESENT18": "Yes", "GIS_ID": "GroceryStorePt_67" }, "geometry": { "type": "Point", "coordinates": [ -76.980999330997506, 38.844949480177 ] } },
{ "type": "Feature", "properties": { "X": -77.026550610396399, "Y": 38.969528402684404, "OBJECTID": "68", "STORENAME": "Safeway", "ADDRESS": "6500 PINEY BRANCH RD NW", "PHONE": "2027235644", "PRESENT90": "No", "PRESENT95": "No", "PRESENT00": "Yes", "PRESENT05": "Yes", "PRESENT08": "Yes", "NOTES": " ", "X_COORD": "397699.34", "Y_COORD": "144623.03", "ADDRESS_ID": "285341", "WARD": "Ward 4", "PRESENT09": "Yes", "PRESENT10": "Yes", "PRESENT11": "Yes", "PRESENT12": "Yes", "SSL": "2974    0020", "PRESENT13": "Yes", "PRESENT14": "Yes", "PRESENT15": "Yes", "PRESENT16": "Yes", "PRESENT17": "Yes", "ZIPCODE": "20012", "PRESENT18": "Yes", "GIS_ID": "GroceryStorePt_68" }, "geometry": { "type": "Point", "coordinates": [ -77.026550610396399, 38.969528402684404 ] } },
{ "type": "Feature", "properties": { "X": -77.082464497539604, "Y": 38.952340161558702, "OBJECTID": "69", "STORENAME": "Safeway", "ADDRESS": "4203 DAVENPORT ST NW", "PHONE": "2023640290", "PRESENT90": "Yes", "PRESENT95": "Yes", "PRESENT00": "Yes", "PRESENT05": "Yes", "PRESENT08": "Yes", "NOTES": " ", "X_COORD": "392852.16", "Y_COORD": "142717.87", "ADDRESS_ID": "301160", "WARD": "Ward 3", "PRESENT09": "Yes", "PRESENT10": "Yes", "PRESENT11": "Yes", "PRESENT12": "Yes", "SSL": "1672    0815", "PRESENT13": "Yes", "PRESENT14": "Yes", "PRESENT15": "No", "PRESENT16": "No", "PRESENT17": "No", "ZIPCODE": "20016", "PRESENT18": "No", "GIS_ID": "GroceryStorePt_9" }, "geometry": { "type": "Point", "coordinates": [ -77.082464497539604, 38.952340161558702 ] } },
{ "type": "Feature", "properties": { "X": -77.033033614451696, "Y": 38.9394468802695, "OBJECTID": "70", "STORENAME": "Morazan Grocery Store", "ADDRESS": "3928 14TH ST NW", "PHONE": "2027237480", "PRESENT90": "", "PRESENT95": "", "PRESENT00": "", "PRESENT05": "", "PRESENT08": "", "NOTES": "", "X_COORD": "397136.32", "Y_COORD": "141283.89", "ADDRESS_ID": "259021", "WARD": "Ward 4", "PRESENT09": "", "PRESENT10": "", "PRESENT11": "", "PRESENT12": "", "SSL": "2693    0044", "PRESENT13": "", "PRESENT14": "", "PRESENT15": "", "PRESENT16": "", "PRESENT17": "", "ZIPCODE": "20011", "PRESENT18": "", "GIS_ID": "GroceryStorePt_15" }, "geometry": { "type": "Point", "coordinates": [ -77.033033614451696, 38.9394468802695 ] } },
{ "type": "Feature", "properties": { "X": -77.072999162124802, "Y": 38.934351493720101, "OBJECTID": "71", "STORENAME": "Giant", "ADDRESS": "3336 WISCONSIN AVE NW", "PHONE": "2022445922", "PRESENT90": "No", "PRESENT95": "Yes", "PRESENT00": "Yes", "PRESENT05": "Yes", "PRESENT08": "Yes", "NOTES": " ", "X_COORD": "393671.02", "Y_COORD": "140720.27", "ADDRESS_ID": "223125", "WARD": "Ward 3", "PRESENT09": "Yes", "PRESENT10": "Yes", "PRESENT11": "Yes", "PRESENT12": "Yes", "SSL": "1920    0844", "PRESENT13": "Yes", "PRESENT14": "Yes", "PRESENT15": "Yes", "PRESENT16": "Yes", "PRESENT17": "Yes", "ZIPCODE": "20016", "PRESENT18": "Yes", "GIS_ID": "GroceryStorePt_71" }, "geometry": { "type": "Point", "coordinates": [ -77.072999162124802, 38.934351493720101 ] } },
{ "type": "Feature", "properties": { "X": -76.999906905957104, "Y": 38.921847780356302, "OBJECTID": "72", "STORENAME": "Save-A-Lot", "ADDRESS": "514 RHODE ISLAND AVE NE", "PHONE": "2026363780", "PRESENT90": "No", "PRESENT95": "No", "PRESENT00": "No", "PRESENT05": "No", "PRESENT08": "No", "NOTES": " ", "X_COORD": "400008.27", "Y_COORD": "139329.72", "ADDRESS_ID": "288529", "WARD": "Ward 5", "PRESENT09": "No", "PRESENT10": "No", "PRESENT11": "No", "PRESENT12": "Yes", "SSL": "3629    0007", "PRESENT13": "Yes", "PRESENT14": "Yes", "PRESENT15": "Yes", "PRESENT16": "Yes", "PRESENT17": "Yes", "ZIPCODE": "20002", "PRESENT18": "Yes", "GIS_ID": "GroceryStorePt_72" }, "geometry": { "type": "Point", "coordinates": [ -76.999906905957104, 38.921847780356302 ] } },
{ "type": "Feature", "properties": { "X": -77.095962125168796, "Y": 38.917441408410902, "OBJECTID": "73", "STORENAME": "Safeway", "ADDRESS": "4865 MACARTHUR BLVD NW", "PHONE": "2023375649", "PRESENT90": "No", "PRESENT95": "Yes", "PRESENT00": "Yes", "PRESENT05": "Yes", "PRESENT08": "Yes", "NOTES": " ", "X_COORD": "391678.11", "Y_COORD": "138844.95", "ADDRESS_ID": "285004", "WARD": "Ward 3", "PRESENT09": "Yes", "PRESENT10": "Yes", "PRESENT11": "Yes", "PRESENT12": "Yes", "SSL": "1389    0025", "PRESENT13": "Yes", "PRESENT14": "Yes", "PRESENT15": "Yes", "PRESENT16": "Yes", "PRESENT17": "Yes", "ZIPCODE": "20007", "PRESENT18": "Yes", "GIS_ID": "GroceryStorePt_73" }, "geometry": { "type": "Point", "coordinates": [ -77.095962125168796, 38.917441408410902 ] } },
{ "type": "Feature", "properties": { "X": -77.033567740070396, "Y": 38.909499107117703, "OBJECTID": "74", "STORENAME": "Whole Foods", "ADDRESS": "1440 P ST NW ", "PHONE": "2023324300", "PRESENT90": "No", "PRESENT95": "No", "PRESENT00": "No", "PRESENT05": "Yes", "PRESENT08": "Yes", "NOTES": "Logan Circle", "X_COORD": "397088.79", "Y_COORD": "137959.45", "ADDRESS_ID": "279174", "WARD": "Ward 2", "PRESENT09": "Yes", "PRESENT10": "Yes", "PRESENT11": "Yes", "PRESENT12": "Yes", "SSL": "0210    0128", "PRESENT13": "Yes", "PRESENT14": "Yes", "PRESENT15": "Yes", "PRESENT16": "Yes", "PRESENT17": "Yes", "ZIPCODE": "20005", "PRESENT18": "Yes", "GIS_ID": "GroceryStorePt_74" }, "geometry": { "type": "Point", "coordinates": [ -77.033567740070396, 38.909499107117703 ] } },
{ "type": "Feature", "properties": { "X": -77.029044423235902, "Y": 38.905007945629897, "OBJECTID": "75", "STORENAME": "Streets Market", "ADDRESS": "1221 MASSACHUSSETTS AVE NW", "PHONE": "2024147891", "PRESENT90": "", "PRESENT95": "", "PRESENT00": "", "PRESENT05": "", "PRESENT08": "", "NOTES": "", "X_COORD": "397480.95", "Y_COORD": "137460.76", "ADDRESS_ID": "240918", "WARD": "Ward 2", "PRESENT09": "", "PRESENT10": "", "PRESENT11": "", "PRESENT12": "", "SSL": "0282    0044", "PRESENT13": "", "PRESENT14": "", "PRESENT15": "", "PRESENT16": "", "PRESENT17": "", "ZIPCODE": "20005", "PRESENT18": "", "GIS_ID": "GroceryStorePt_75" }, "geometry": { "type": "Point", "coordinates": [ -77.029044423235902, 38.905007945629897 ] } },
{ "type": "Feature", "properties": { "X": -76.978031826866797, "Y": 38.901569290610801, "OBJECTID": "76", "STORENAME": "Aldi", "ADDRESS": "901 17TH ST NE", "PHONE": "8559552534", "PRESENT90": "No", "PRESENT95": "No", "PRESENT00": "No", "PRESENT05": "No", "PRESENT08": "No", "NOTES": " ", "X_COORD": "401905.76", "Y_COORD": "137078.87", "ADDRESS_ID": "308898", "WARD": "Ward 5", "PRESENT09": "No", "PRESENT10": "No", "PRESENT11": "Yes", "PRESENT12": "Yes", "SSL": "4488    0040", "PRESENT13": "Yes", "PRESENT14": "Yes", "PRESENT15": "Yes", "PRESENT16": "Yes", "PRESENT17": "Yes", "ZIPCODE": "20002", "PRESENT18": "Yes", "GIS_ID": "GroceryStorePt_76" }, "geometry": { "type": "Point", "coordinates": [ -76.978031826866797, 38.901569290610801 ] } },
{ "type": "Feature", "properties": { "X": -76.947457197059506, "Y": 38.893139781622203, "OBJECTID": "77", "STORENAME": "Safeway", "ADDRESS": "322 40TH ST NE", "PHONE": "2023972802", "PRESENT90": "Yes", "PRESENT95": "Yes", "PRESENT00": "Yes", "PRESENT05": "Yes", "PRESENT08": "Yes", "NOTES": " ", "X_COORD": "404558.4", "Y_COORD": "136144.21", "ADDRESS_ID": "295141", "WARD": "Ward 7", "PRESENT09": "Yes", "PRESENT10": "Yes", "PRESENT11": "Yes", "PRESENT12": "Yes", "SSL": "5051N   0840", "PRESENT13": "Yes", "PRESENT14": "Yes", "PRESENT15": "Yes", "PRESENT16": "Yes", "PRESENT17": "Yes", "ZIPCODE": "20019", "PRESENT18": "Yes", "GIS_ID": "GroceryStorePt_59" }, "geometry": { "type": "Point", "coordinates": [ -76.947457197059506, 38.893139781622203 ] } },
{ "type": "Feature", "properties": { "X": -76.972747867399406, "Y": 38.874133336463103, "OBJECTID": "78", "STORENAME": "Yes! Organic", "ADDRESS": "2323 PENNSYLVANIA AVE SE", "PHONE": "2025821480", "PRESENT90": "No", "PRESENT95": "No", "PRESENT00": "No", "PRESENT05": "No", "PRESENT08": "No", "NOTES": " ", "X_COORD": "402365.01", "Y_COORD": "134033.39", "ADDRESS_ID": "48543", "WARD": "Ward 7", "PRESENT09": "No", "PRESENT10": "Yes", "PRESENT11": "Yes", "PRESENT12": "Yes", "SSL": "5560    0055", "PRESENT13": "No", "PRESENT14": "No", "PRESENT15": "No", "PRESENT16": "No", "PRESENT17": "No", "ZIPCODE": "20020", "PRESENT18": "No", "GIS_ID": "GroceryStorePt_78" }, "geometry": { "type": "Point", "coordinates": [ -76.972747867399406, 38.874133336463103 ] } },
{ "type": "Feature", "properties": { "X": -77.024867984166704, "Y": 38.919757346222497, "OBJECTID": "79", "STORENAME": "Whole Foods", "ADDRESS": "967 FLORIDA AVE NW", "PHONE": "2025193400", "PRESENT90": "No", "PRESENT95": "No", "PRESENT00": "No", "PRESENT05": "No", "PRESENT08": "No", "NOTES": "", "X_COORD": "397861.5", "Y_COORD": "139107.39", "ADDRESS_ID": "319123", "WARD": "Ward 1", "PRESENT09": "No", "PRESENT10": "No", "PRESENT11": "No", "PRESENT12": "No", "SSL": "2873    1102", "PRESENT13": "No", "PRESENT14": "No", "PRESENT15": "No", "PRESENT16": "No", "PRESENT17": "No", "ZIPCODE": "20001", "PRESENT18": "No", "GIS_ID": "GroceryStorePt_79" }, "geometry": { "type": "Point", "coordinates": [ -77.024867984166704, 38.919757346222497 ] } }
]
}
